{"type":"FeatureCollection","features":[{"type":"Feature","properties":{"name":"Tres Cerritos","ID_number":"01"},"geometry":{"coordinates":[-101.10381399951922,19.966291243517148],"type":"Point"}},{"type":"Feature","properties":{"name":"Tingambato","ID_number":"02"},"geometry":{"coordinates":[-101.85860171796949,19.49464501421369],"type":"Point"}},{"type":"Feature","properties":{"name":"Ihuatzio","ID_number":"03"},"geometry":{"coordinates":[-101.6011063242791,19.58872085465434],"type":"Point"}},{"type":"Feature","properties":{"name":"Huandacareo ","ID_number":"04"},"geometry":{"coordinates":[-101.28848467116426,19.995131807643887],"type":"Point"}},{"type":"Feature","properties":{"name":"Tzintzuntzan ","ID_number":"05"},"geometry":{"coordinates":[-101.57998499089086,19.63009476501459],"type":"Point"}},{"type":"Feature","properties":{"name":"San Felipe-Zirahuato","ID_number":"06"},"geometry":{"coordinates":[-100.39153385459855,19.506374240946883],"type":"Point"}}]}